[
  {
    "name": "Old Mitchell Toll Road",
    "lat": 35.635467613563556,
    "lon": -82.295625080569,
    "rank": 1,
    "visible": false,
    "confidence": 30,
    "num_lines": 255,
    "orientation_match": false,
    "color_match": false,
    "brown_percent": 8.15,
    "green_percent": 22.29,
    "match_score": 0.2,
    "match_quality": "LOW"
  },
  {
    "name": "Lower Staire",
    "lat": 35.75572661992398,
    "lon": -82.37950049073712,
    "rank": 2,
    "visible": false,
    "confidence": 30,
    "num_lines": 272,
    "orientation_match": false,
    "color_match": false,
    "brown_percent": 35.02,
    "green_percent": 16.6,
    "match_score": 0.4,
    "match_quality": "LOW"
  },
  {
    "name": "Rainbow Road",
    "lat": 35.640297582850614,
    "lon": -82.30152980514158,
    "rank": 3,
    "visible": false,
    "confidence": 30,
    "num_lines": 265,
    "orientation_match": false,
    "color_match": false,
    "brown_percent": 2.66,
    "green_percent": 17.76,
    "match_score": 0.6,
    "match_quality": "LOW"
  },
  {
    "name": "Old Trestle Road",
    "lat": 35.64126926076282,
    "lon": -82.2871062411529,
    "rank": 4,
    "visible": false,
    "confidence": 30,
    "num_lines": 251,
    "orientation_match": false,
    "color_match": false,
    "brown_percent": 1.87,
    "green_percent": 50.7,
    "match_score": 0.0,
    "match_quality": "LOW"
  },
  {
    "name": "Pine Tree Loop",
    "lat": 35.47839722343583,
    "lon": -82.63155543676159,
    "rank": 5,
    "visible": false,
    "confidence": 30,
    "num_lines": 265,
    "orientation_match": false,
    "color_match": false,
    "brown_percent": 3.64,
    "green_percent": 40.78,
    "match_score": 0.4,
    "match_quality": "LOW"
  }
]